[
  {
    "id": "1",
    "autor": "Irene Solà",
    "libro": "Canto jo i la muntanya balla",
    "editorial": "Anagrama",
    "ubicacion": "La Central del Raval",
    "direccion": "Carrer d'Elisabets, 6",
    "coordenadas": { "lat": 41.3825, "lng": 2.1700 },
    "horaInicio": "10:00",
    "horaFin": "11:30"
  },
  {
    "id": "2",
    "autor": "Jaume Cabré",
    "libro": "Jo confesso",
    "editorial": "Proa",
    "ubicacion": "Llibreria Catalònia",
    "direccion": "Ronda de Sant Pere, 3",
    "coordenadas": { "lat": 41.3893, "lng": 2.1730 },
    "horaInicio": "11:00",
    "horaFin": "13:00"
  },
  {
    "id": "3",
    "autor": "Care Santos",
    "libro": "Mitja vida",
    "editorial": "Edicions 62",
    "ubicacion": "Casa del Llibre - Passeig de Gràcia",
    "direccion": "Passeig de Gràcia, 62",
    "coordenadas": { "lat": 41.3945, "lng": 2.1640 },
    "horaInicio": "12:00",
    "horaFin": "14:00"
  },
  {
    "id": "4",
    "autor": "Albert Espinosa",
    "libro": "Si tu em dius vine ho deixo tot... però digue'm vine",
    "editorial": "Rosa dels Vents",
    "ubicacion": "FNAC Triangle",
    "direccion": "Plaça de Catalunya, 4",
    "coordenadas": { "lat": 41.3870, "lng": 2.1700 },
    "horaInicio": "10:30",
    "horaFin": "12:00"
  },
  {
    "id": "5",
    "autor": "Maria Barbal",
    "libro": "Pedra de tartera",
    "editorial": "Columna",
    "ubicacion": "La Setmana del Llibre en Català",
    "direccion": "Avinguda de la Catedral, s/n",
    "coordenadas": { "lat": 41.3841, "lng": 2.1764 },
    "horaInicio": "16:00",
    "horaFin": "18:00"
  },
  {
    "id": "6",
    "autor": "Raül Garrigasait",
    "libro": "Els estranys",
    "editorial": "L'Altra Editorial",
    "ubicacion": "Llibreria Laie",
    "direccion": "Carrer de Pau Claris, 85",
    "coordenadas": { "lat": 41.3920, "lng": 2.1690 },
    "horaInicio": "17:00",
    "horaFin": "19:00"
  },
  {
    "id": "7",
    "autor": "Víctor García Tur",
    "libro": "Les mans petites",
    "editorial": "Proa",
    "ubicacion": "Parada Rambla Catalunya",
    "direccion": "Rambla de Catalunya, 40",
    "coordenadas": { "lat": 41.3895, "lng": 2.1630 },
    "horaInicio": "11:00",
    "horaFin": "13:00"
  },
  {
    "id": "8",
    "autor": "Najat El Hachmi",
    "libro": "El lunes nos querrán",
    "editorial": "Destino",
    "ubicacion": "Llibreria Alibri",
    "direccion": "Carrer de Balmes, 26",
    "coordenadas": { "lat": 41.3880, "lng": 2.1610 },
    "horaInicio": "13:00",
    "horaFin": "14:30"
  },
  {
    "id": "9",
    "autor": "Toni Cruanyes",
    "libro": "Llavors tot va satisfer",
    "editorial": "Columna",
    "ubicacion": "El Corte Inglés - Portal de l'Àngel",
    "direccion": "Portal de l'Àngel, 19-21",
    "coordenadas": { "lat": 41.3862, "lng": 2.1740 },
    "horaInicio": "18:00",
    "horaFin": "20:00"
  },
  {
    "id": "10",
    "autor": "Eva Baltasar",
    "libro": "Boulder",
    "editorial": "Club Editor",
    "ubicacion": "Llibreria Nollegiu",
    "direccion": "Carrer de Méndez Núñez, 1",
    "coordenadas": { "lat": 41.3840, "lng": 2.1830 },
    "horaInicio": "12:00",
    "horaFin": "13:30"
  },
  {
    "id": "11",
    "autor": "Llucia Ramis",
    "libro": "Tot allò que una tarda morí amb les bicicletes",
    "editorial": "Anagrama",
    "ubicacion": "La Central del Raval",
    "direccion": "Carrer d'Elisabets, 6",
    "coordenadas": { "lat": 41.3825, "lng": 2.1700 },
    "horaInicio": "16:00",
    "horaFin": "17:30"
  },
  {
    "id": "12",
    "autor": "Jordi Puntí",
    "libro": "Els castellans",
    "editorial": "Empúries",
    "ubicacion": "Parada Rambla Catalunya",
    "direccion": "Rambla de Catalunya, 40",
    "coordenadas": { "lat": 41.3895, "lng": 2.1630 },
    "horaInicio": "17:00",
    "horaFin": "19:00"
  }
]
